{
    "properties": [
        {
            "region_id": 95992,
            "region_name": 90011,
            "city": "Los Angeles",
            "state": "CA",
            "metro": "Los Angeles-Long Beach-Anaheim, CA",
            "county_name": "Los Angeles County",
            "price": 594352.4106994785,
            "latitude": 34.1442,
            "longitude": -118.1517
        },
        {
            "region_id": 96193,
            "region_name": 90650,
            "city": "Norwalk",
            "state": "CA",
            "metro": "Los Angeles-Long Beach-Anaheim, CA",
            "county_name": "Los Angeles County",
            "price": 748719.6520341778,
            "latitude": 37.7083,
            "longitude": -118.4879
        },
        {
            "region_id": 96361,
            "region_name": 91331,
            "city": "Los Angeles",
            "state": "CA",
            "metro": "Los Angeles-Long Beach-Anaheim, CA",
            "county_name": "Los Angeles County",
            "price": 736294.7497441616,
            "latitude": 34.1132,
            "longitude": -118.1827
        },
        {
            "region_id": 96025,
            "region_name": 90044,
            "city": "Los Angeles",
            "state": "CA",
            "metro": "Los Angeles-Long Beach-Anaheim, CA",
            "county_name": "Los Angeles County",
            "price": 639959.3111795498,
            "latitude": 34.0772,
            "longitude": -118.2187
        },
        {
            "region_id": 96817,
            "region_name": 92336,
            "city": "Fontana",
            "state": "CA",
            "metro": "Riverside-San Bernardino-Ontario, CA",
            "county_name": "San Bernardino County",
            "price": 702875.6082342392,
            "latitude": 36.9483,
            "longitude": -119.2479
        },
        {
            "region_id": 97771,
            "region_name": 94565,
            "city": "Pittsburg",
            "state": "CA",
            "metro": "San Francisco-Oakland-Berkeley, CA",
            "county_name": "Contra Costa County",
            "price": 579405.51494463,
            "latitude": 37.4883,
            "longitude": -118.7079
        },
        {
            "region_id": 96816,
            "region_name": 92335,
            "city": "Fontana",
            "state": "CA",
            "metro": "Riverside-San Bernardino-Ontario, CA",
            "county_name": "San Bernardino County",
            "price": 557508.8895692215,
            "latitude": 36.9383,
            "longitude": -119.2579
        },
        {
            "region_id": 96083,
            "region_name": 90201,
            "city": "Bell",
            "state": "CA",
            "metro": "Los Angeles-Long Beach-Anaheim, CA",
            "county_name": "Los Angeles County",
            "price": 668992.3298756102,
            "latitude": 37.6083,
            "longitude": -118.5879
        },
        {
            "region_id": 96107,
            "region_name": 90250,
            "city": "Hawthorne",
            "state": "CA",
            "metro": "Los Angeles-Long Beach-Anaheim, CA",
            "county_name": "Los Angeles County",
            "price": 867942.294678174,
            "latitude": 36.8483,
            "longitude": -119.3479
        },
        {
            "region_id": 96239,
            "region_name": 90805,
            "city": "Long Beach",
            "state": "CA",
            "metro": "Los Angeles-Long Beach-Anaheim, CA",
            "county_name": "Los Angeles County",
            "price": 697608.5135824512,
            "latitude": 37.1683,
            "longitude": -119.0279
        },
        {
            "region_id": 97223,
            "region_name": 93307,
            "city": "Bakersfield",
            "state": "CA",
            "metro": "Bakersfield, CA",
            "county_name": "Kern County",
            "price": 311156.0120107956,
            "latitude": 35.396300000000004,
            "longitude": -118.9957
        },
        {
            "region_id": 96125,
            "region_name": 90280,
            "city": "South Gate",
            "state": "CA",
            "metro": "Los Angeles-Long Beach-Anaheim, CA",
            "county_name": "Los Angeles County",
            "price": 680278.3003912956,
            "latitude": 37.0283,
            "longitude": -119.1679
        },
        {
            "region_id": 96368,
            "region_name": 91342,
            "city": "Los Angeles",
            "state": "CA",
            "metro": "Los Angeles-Long Beach-Anaheim, CA",
            "county_name": "Los Angeles County",
            "price": 805493.4965637453,
            "latitude": 34.1202,
            "longitude": -118.1757
        },
        {
            "region_id": 96990,
            "region_name": 92683,
            "city": "Westminster",
            "state": "CA",
            "metro": "Los Angeles-Long Beach-Anaheim, CA",
            "county_name": "Orange County",
            "price": 1048187.0082139404,
            "latitude": 37.6783,
            "longitude": -118.5179
        },
        {
            "region_id": 96882,
            "region_name": 92503,
            "city": "Riverside",
            "state": "CA",
            "metro": "Riverside-San Bernardino-Ontario, CA",
            "county_name": "Riverside County",
            "price": 634673.8487645766,
            "latitude": 37.5983,
            "longitude": -118.5979
        },
        {
            "region_id": 96825,
            "region_name": 92345,
            "city": "Hesperia",
            "state": "CA",
            "metro": "Riverside-San Bernardino-Ontario, CA",
            "county_name": "San Bernardino County",
            "price": 437629.459693426,
            "latitude": 37.0283,
            "longitude": -119.1679
        },
        {
            "region_id": 96546,
            "region_name": 91911,
            "city": "Chula Vista",
            "state": "CA",
            "metro": "San Diego-Chula Vista-Carlsbad, CA",
            "county_name": "San Diego County",
            "price": 769523.2752946982,
            "latitude": 37.2383,
            "longitude": -118.9579
        },
        {
            "region_id": 97104,
            "region_name": 93033,
            "city": "Oxnard",
            "state": "CA",
            "metro": "Oxnard-Thousand Oaks-Ventura, CA",
            "county_name": "Ventura County",
            "price": 693493.1510697291,
            "latitude": 36.8183,
            "longitude": -119.3779
        },
        {
            "region_id": 97970,
            "region_name": 95076,
            "city": "Watsonville",
            "state": "CA",
            "metro": "Santa Cruz-Watsonville, CA",
            "county_name": "Santa Cruz County",
            "price": 832626.6049365409,
            "latitude": 37.4783,
            "longitude": -118.7179
        },
        {
            "region_id": 96690,
            "region_name": 92154,
            "city": "San Diego",
            "state": "CA",
            "metro": "San Diego-Chula Vista-Carlsbad, CA",
            "county_name": "San Diego County",
            "price": 754438.021775966,
            "latitude": 32.8057,
            "longitude": -117.0711
        },
        {
            "region_id": 96846,
            "region_name": 92376,
            "city": "Rialto",
            "state": "CA",
            "metro": "Riverside-San Bernardino-Ontario, CA",
            "county_name": "San Bernardino County",
            "price": 556139.9603655015,
            "latitude": 37.2383,
            "longitude": -118.9579
        },
        {
            "region_id": 97023,
            "region_name": 92804,
            "city": "Anaheim",
            "state": "CA",
            "metro": "Los Angeles-Long Beach-Anaheim, CA",
            "county_name": "Orange County",
            "price": 905319.2777425636,
            "latitude": 37.0083,
            "longitude": -119.1879
        },
        {
            "region_id": 96468,
            "region_name": 91710,
            "city": "Chino",
            "state": "CA",
            "metro": "Riverside-San Bernardino-Ontario, CA",
            "county_name": "San Bernardino County",
            "price": 759663.5314789637,
            "latitude": 37.4583,
            "longitude": -118.7379
        },
        {
            "region_id": 97431,
            "region_name": 93722,
            "city": "Fresno",
            "state": "CA",
            "metro": "Fresno, CA",
            "county_name": "Fresno County",
            "price": 396102.44493626896,
            "latitude": 37.0883,
            "longitude": -119.1079
        },
        {
            "region_id": 97567,
            "region_name": 94112,
            "city": "San Francisco",
            "state": "CA",
            "metro": "San Francisco-Oakland-Berkeley, CA",
            "county_name": "San Francisco County",
            "price": 1074772.9055892627,
            "latitude": 37.8419,
            "longitude": -122.3524
        },
        {
            "region_id": 98432,
            "region_name": 95823,
            "city": "Sacramento",
            "state": "CA",
            "metro": "Sacramento-Roseville-Folsom, CA",
            "county_name": "Sacramento County",
            "price": 429169.525527937,
            "latitude": 38.6136,
            "longitude": -121.4624
        },
        {
            "region_id": 97940,
            "region_name": 95035,
            "city": "Milpitas",
            "state": "CA",
            "metro": "San Jose-Sunnyvale-Santa Clara, CA",
            "county_name": "Santa Clara County",
            "price": 1479752.3769222172,
            "latitude": 37.1783,
            "longitude": -119.0179
        },
        {
            "region_id": 96488,
            "region_name": 91744,
            "city": "La Puente",
            "state": "CA",
            "metro": "Los Angeles-Long Beach-Anaheim, CA",
            "county_name": "Los Angeles County",
            "price": 728225.1039360148,
            "latitude": 37.6583,
            "longitude": -118.5379
        },
        {
            "region_id": 96888,
            "region_name": 92509,
            "city": "Jurupa Valley",
            "state": "CA",
            "metro": "Riverside-San Bernardino-Ontario, CA",
            "county_name": "Riverside County",
            "price": 626009.8500362132,
            "latitude": 37.6583,
            "longitude": -118.5379
        },
        {
            "region_id": 97189,
            "region_name": 93257,
            "city": "Porterville",
            "state": "CA",
            "metro": "Visalia, CA",
            "county_name": "Tulare County",
            "price": 314813.0050233317,
            "latitude": 37.6683,
            "longitude": -118.5279
        },
        {
            "region_id": 97328,
            "region_name": 93550,
            "city": "Palmdale",
            "state": "CA",
            "metro": "Los Angeles-Long Beach-Anaheim, CA",
            "county_name": "Los Angeles County",
            "price": 455663.4722204206,
            "latitude": 37.0583,
            "longitude": -119.1379
        },
        {
            "region_id": 96934,
            "region_name": 92592,
            "city": "Temecula",
            "state": "CA",
            "metro": "Riverside-San Bernardino-Ontario, CA",
            "county_name": "Riverside County",
            "price": 764940.8394309185,
            "latitude": 37.118300000000005,
            "longitude": -119.0779
        },
        {
            "region_id": 98325,
            "region_name": 95630,
            "city": "Folsom",
            "state": "CA",
            "metro": "Sacramento-Roseville-Folsom, CA",
            "county_name": "Sacramento County",
            "price": 761519.4740794875,
            "latitude": 37.0283,
            "longitude": -119.1679
        },
        {
            "region_id": 97073,
            "region_name": 92880,
            "city": "Eastvale",
            "state": "CA",
            "metro": "Riverside-San Bernardino-Ontario, CA",
            "county_name": "Riverside County",
            "price": 950201.0459818612,
            "latitude": 37.5083,
            "longitude": -118.6879
        },
        {
            "region_id": 97751,
            "region_name": 94544,
            "city": "Hayward",
            "state": "CA",
            "metro": "San Francisco-Oakland-Berkeley, CA",
            "county_name": "Alameda County",
            "price": 872484.516486165,
            "latitude": 37.2883,
            "longitude": -118.9079
        },
        {
            "region_id": 96208,
            "region_name": 90706,
            "city": "Bellflower",
            "state": "CA",
            "metro": "Los Angeles-Long Beach-Anaheim, CA",
            "county_name": "Los Angeles County",
            "price": 787258.176351817,
            "latitude": 36.8583,
            "longitude": -119.3379
        },
        {
            "region_id": 97318,
            "region_name": 93535,
            "city": "Lancaster",
            "state": "CA",
            "metro": "Los Angeles-Long Beach-Anaheim, CA",
            "county_name": "Los Angeles County",
            "price": 436804.2493098869,
            "latitude": 36.9583,
            "longitude": -119.2379
        },
        {
            "region_id": 97004,
            "region_name": 92704,
            "city": "Santa Ana",
            "state": "CA",
            "metro": "Los Angeles-Long Beach-Anaheim, CA",
            "county_name": "Orange County",
            "price": 865821.291121873,
            "latitude": 36.8183,
            "longitude": -119.3779
        },
        {
            "region_id": 97202,
            "region_name": 93274,
            "city": "Tulare",
            "state": "CA",
            "metro": "Visalia, CA",
            "county_name": "Tulare County",
            "price": 340644.621694351,
            "latitude": 36.798300000000005,
            "longitude": -119.3979
        },
        {
            "region_id": 96364,
            "region_name": 91335,
            "city": "Los Angeles",
            "state": "CA",
            "metro": "Los Angeles-Long Beach-Anaheim, CA",
            "county_name": "Los Angeles County",
            "price": 803798.0707973465,
            "latitude": 34.1162,
            "longitude": -118.1797
        },
        {
            "region_id": 97740,
            "region_name": 94533,
            "city": "Fairfield",
            "state": "CA",
            "metro": "Vallejo, CA",
            "county_name": "Solano County",
            "price": 541921.0379727669,
            "latitude": 37.1783,
            "longitude": -119.0179
        },
        {
            "region_id": 97319,
            "region_name": 93536,
            "city": "Lancaster",
            "state": "CA",
            "metro": "Los Angeles-Long Beach-Anaheim, CA",
            "county_name": "Los Angeles County",
            "price": 539372.9018394074,
            "latitude": 36.9683,
            "longitude": -119.2279
        },
        {
            "region_id": 96467,
            "region_name": 91709,
            "city": "Chino Hills",
            "state": "CA",
            "metro": "Riverside-San Bernardino-Ontario, CA",
            "county_name": "San Bernardino County",
            "price": 957484.284868352,
            "latitude": 37.4483,
            "longitude": -118.7479
        },
        {
            "region_id": 96545,
            "region_name": 91910,
            "city": "Chula Vista",
            "state": "CA",
            "metro": "San Diego-Chula Vista-Carlsbad, CA",
            "county_name": "San Diego County",
            "price": 835271.0264306134,
            "latitude": 37.2283,
            "longitude": -118.9679
        },
        {
            "region_id": 97721,
            "region_name": 94513,
            "city": "Brentwood",
            "state": "CA",
            "metro": "San Francisco-Oakland-Berkeley, CA",
            "county_name": "Contra Costa County",
            "price": 812273.8555721074,
            "latitude": 36.9883,
            "longitude": -119.2079
        },
        {
            "region_id": 97435,
            "region_name": 93727,
            "city": "Fresno",
            "state": "CA",
            "metro": "Fresno, CA",
            "county_name": "Fresno County",
            "price": 418352.4686089829,
            "latitude": 37.1283,
            "longitude": -119.0679
        },
        {
            "region_id": 96465,
            "region_name": 91706,
            "city": "Baldwin Park",
            "state": "CA",
            "metro": "Los Angeles-Long Beach-Anaheim, CA",
            "county_name": "Los Angeles County",
            "price": 715838.5281893675,
            "latitude": 37.4283,
            "longitude": -118.7679
        },
        {
            "region_id": 95984,
            "region_name": 90003,
            "city": "Los Angeles",
            "state": "CA",
            "metro": "Los Angeles-Long Beach-Anaheim, CA",
            "county_name": "Los Angeles County",
            "price": 596274.0429079455,
            "latitude": 34.1362,
            "longitude": -118.1597
        },
        {
            "region_id": 96667,
            "region_name": 92126,
            "city": "San Diego",
            "state": "CA",
            "metro": "San Diego-Chula Vista-Carlsbad, CA",
            "county_name": "San Diego County",
            "price": 1027432.8901847008,
            "latitude": 32.7827,
            "longitude": -117.0941
        },
        {
            "region_id": 96911,
            "region_name": 92553,
            "city": "Moreno Valley",
            "state": "CA",
            "metro": "Riverside-San Bernardino-Ontario, CA",
            "county_name": "Riverside County",
            "price": 515379.08944152,
            "latitude": 36.8883,
            "longitude": -119.3079
        },
        {
            "region_id": 97222,
            "region_name": 93306,
            "city": "Bakersfield",
            "state": "CA",
            "metro": "Bakersfield, CA",
            "county_name": "Kern County",
            "price": 343058.5337334428,
            "latitude": 35.3953,
            "longitude": -118.9967
        },
        {
            "region_id": 97167,
            "region_name": 93230,
            "city": "Hanford",
            "state": "CA",
            "metro": "Hanford-Corcoran, CA",
            "county_name": "Kings County",
            "price": 363771.43643432873,
            "latitude": 37.4483,
            "longitude": -118.7479
        },
        {
            "region_id": 98411,
            "region_name": 95747,
            "city": "Roseville",
            "state": "CA",
            "metro": "Sacramento-Roseville-Folsom, CA",
            "county_name": "Placer County",
            "price": 662198.9426913364,
            "latitude": 36.8883,
            "longitude": -119.3079
        },
        {
            "region_id": 97743,
            "region_name": 94536,
            "city": "Fremont",
            "state": "CA",
            "metro": "San Francisco-Oakland-Berkeley, CA",
            "county_name": "Alameda County",
            "price": 1483522.1749091034,
            "latitude": 37.2083,
            "longitude": -118.9879
        },
        {
            "region_id": 96918,
            "region_name": 92563,
            "city": "Murrieta",
            "state": "CA",
            "metro": "Riverside-San Bernardino-Ontario, CA",
            "county_name": "Riverside County",
            "price": 693365.9238872844,
            "latitude": 36.9583,
            "longitude": -119.2379
        },
        {
            "region_id": 96110,
            "region_name": 90255,
            "city": "Huntington Park",
            "state": "CA",
            "metro": "Los Angeles-Long Beach-Anaheim, CA",
            "county_name": "Los Angeles County",
            "price": 650202.0795261787,
            "latitude": 36.8783,
            "longitude": -119.3179
        },
        {
            "region_id": 96647,
            "region_name": 92105,
            "city": "San Diego",
            "state": "CA",
            "metro": "San Diego-Chula Vista-Carlsbad, CA",
            "county_name": "San Diego County",
            "price": 687322.6316128183,
            "latitude": 32.762699999999995,
            "longitude": -117.1141
        },
        {
            "region_id": 96590,
            "region_name": 92021,
            "city": "El Cajon",
            "state": "CA",
            "metro": "San Diego-Chula Vista-Carlsbad, CA",
            "county_name": "San Diego County",
            "price": 778664.4785545379,
            "latitude": 37.6783,
            "longitude": -118.5179
        },
        {
            "region_id": 96477,
            "region_name": 91730,
            "city": "Rancho Cucamonga",
            "state": "CA",
            "metro": "Riverside-San Bernardino-Ontario, CA",
            "county_name": "San Bernardino County",
            "price": 673177.3761056903,
            "latitude": 37.548300000000005,
            "longitude": -118.6479
        },
        {
            "region_id": 97565,
            "region_name": 94110,
            "city": "San Francisco",
            "state": "CA",
            "metro": "San Francisco-Oakland-Berkeley, CA",
            "county_name": "San Francisco County",
            "price": 1218322.9578432052,
            "latitude": 37.8399,
            "longitude": -122.3544
        },
        {
            "region_id": 97717,
            "region_name": 94509,
            "city": "Antioch",
            "state": "CA",
            "metro": "San Francisco-Oakland-Berkeley, CA",
            "county_name": "Contra Costa County",
            "price": 555081.7568461535,
            "latitude": 36.9483,
            "longitude": -119.2479
        },
        {
            "region_id": 97118,
            "region_name": 93065,
            "city": "Simi Valley",
            "state": "CA",
            "metro": "Oxnard-Thousand Oaks-Ventura, CA",
            "county_name": "Ventura County",
            "price": 847430.894954815,
            "latitude": 36.9583,
            "longitude": -119.2379
        },
        {
            "region_id": 98378,
            "region_name": 95687,
            "city": "Vacaville",
            "state": "CA",
            "metro": "Vallejo, CA",
            "county_name": "Solano County",
            "price": 583739.1809587907,
            "latitude": 37.5583,
            "longitude": -118.6379
        },
        {
            "region_id": 97075,
            "region_name": 92882,
            "city": "Corona",
            "state": "CA",
            "metro": "Riverside-San Bernardino-Ontario, CA",
            "county_name": "Riverside County",
            "price": 775857.6593368164,
            "latitude": 37.5283,
            "longitude": -118.6679
        },
        {
            "region_id": 97764,
            "region_name": 94558,
            "city": "Napa",
            "state": "CA",
            "metro": "Napa, CA",
            "county_name": "Napa County",
            "price": 908663.7850624496,
            "latitude": 37.4183,
            "longitude": -118.7779
        },
        {
            "region_id": 97745,
            "region_name": 94538,
            "city": "Fremont",
            "state": "CA",
            "metro": "San Francisco-Oakland-Berkeley, CA",
            "county_name": "Alameda County",
            "price": 1380504.8169233308,
            "latitude": 37.2283,
            "longitude": -118.9679
        },
        {
            "region_id": 96506,
            "region_name": 91766,
            "city": "Pomona",
            "state": "CA",
            "metro": "Los Angeles-Long Beach-Anaheim, CA",
            "county_name": "Los Angeles County",
            "price": 691129.2675207113,
            "latitude": 36.8383,
            "longitude": -119.3579
        },
        {
            "region_id": 97024,
            "region_name": 92805,
            "city": "Anaheim",
            "state": "CA",
            "metro": "Los Angeles-Long Beach-Anaheim, CA",
            "county_name": "Orange County",
            "price": 832424.0569241359,
            "latitude": 37.0183,
            "longitude": -119.1779
        },
        {
            "region_id": 96186,
            "region_name": 90631,
            "city": "La Habra",
            "state": "CA",
            "metro": "Los Angeles-Long Beach-Anaheim, CA",
            "county_name": "Orange County",
            "price": 914759.2119985656,
            "latitude": 37.6383,
            "longitude": -118.5579
        },
        {
            "region_id": 96007,
            "region_name": 90026,
            "city": "Los Angeles",
            "state": "CA",
            "metro": "Los Angeles-Long Beach-Anaheim, CA",
            "county_name": "Los Angeles County",
            "price": 1159159.8949342745,
            "latitude": 34.0592,
            "longitude": -118.2367
        },
        {
            "region_id": 97792,
            "region_name": 94587,
            "city": "Union City",
            "state": "CA",
            "metro": "San Francisco-Oakland-Berkeley, CA",
            "county_name": "Alameda County",
            "price": 1292997.6263436875,
            "latitude": 37.6983,
            "longitude": -118.4979
        },
        {
            "region_id": 97020,
            "region_name": 92801,
            "city": "Anaheim",
            "state": "CA",
            "metro": "Los Angeles-Long Beach-Anaheim, CA",
            "county_name": "Orange County",
            "price": 845013.7399303921,
            "latitude": 36.9783,
            "longitude": -119.2179
        },
        {
            "region_id": 98319,
            "region_name": 95624,
            "city": "Elk Grove",
            "state": "CA",
            "metro": "Sacramento-Roseville-Folsom, CA",
            "county_name": "Sacramento County",
            "price": 646599.5335303455,
            "latitude": 36.9683,
            "longitude": -119.2279
        },
        {
            "region_id": 96411,
            "region_name": 91402,
            "city": "Los Angeles",
            "state": "CA",
            "metro": "Los Angeles-Long Beach-Anaheim, CA",
            "county_name": "Los Angeles County",
            "price": 703561.3314062227,
            "latitude": 34.0632,
            "longitude": -118.2327
        },
        {
            "region_id": 97991,
            "region_name": 95123,
            "city": "San Jose",
            "state": "CA",
            "metro": "San Jose-Sunnyvale-Santa Clara, CA",
            "county_name": "Santa Clara County",
            "price": 1392776.7331882373,
            "latitude": 37.4292,
            "longitude": -121.7953
        },
        {
            "region_id": 96656,
            "region_name": 92114,
            "city": "San Diego",
            "state": "CA",
            "metro": "San Diego-Chula Vista-Carlsbad, CA",
            "county_name": "San Diego County",
            "price": 732132.0959561579,
            "latitude": 32.7717,
            "longitude": -117.1051
        },
        {
            "region_id": 97748,
            "region_name": 94541,
            "city": "Hayward",
            "state": "CA",
            "metro": "San Francisco-Oakland-Berkeley, CA",
            "county_name": "Alameda County",
            "price": 807362.1942792296,
            "latitude": 37.2583,
            "longitude": -118.9379
        },
        {
            "region_id": 96113,
            "region_name": 90262,
            "city": "Lynwood",
            "state": "CA",
            "metro": "Los Angeles-Long Beach-Anaheim, CA",
            "county_name": "Los Angeles County",
            "price": 671839.5704422542,
            "latitude": 36.9083,
            "longitude": -119.2879
        },
        {
            "region_id": 96018,
            "region_name": 90037,
            "city": "Los Angeles",
            "state": "CA",
            "metro": "Los Angeles-Long Beach-Anaheim, CA",
            "county_name": "Los Angeles County",
            "price": 659129.7791286219,
            "latitude": 34.0702,
            "longitude": -118.2257
        },
        {
            "region_id": 96868,
            "region_name": 92407,
            "city": "San Bernardino",
            "state": "CA",
            "metro": "Riverside-San Bernardino-Ontario, CA",
            "county_name": "San Bernardino County",
            "price": 534071.498054155,
            "latitude": 37.4583,
            "longitude": -118.7379
        },
        {
            "region_id": 97471,
            "region_name": 93906,
            "city": "Salinas",
            "state": "CA",
            "metro": "Salinas, CA",
            "county_name": "Monterey County",
            "price": 690901.4563764582,
            "latitude": 37.4883,
            "longitude": -118.7079
        },
        {
            "region_id": 97545,
            "region_name": 94080,
            "city": "South San Francisco",
            "state": "CA",
            "metro": "San Francisco-Oakland-Berkeley, CA",
            "county_name": "San Mateo County",
            "price": 1200489.5311809424,
            "latitude": 37.2283,
            "longitude": -118.9679
        },
        {
            "region_id": 97003,
            "region_name": 92703,
            "city": "Santa Ana",
            "state": "CA",
            "metro": "Los Angeles-Long Beach-Anaheim, CA",
            "county_name": "Orange County",
            "price": 807526.6190209425,
            "latitude": 36.8083,
            "longitude": -119.3879
        },
        {
            "region_id": 97931,
            "region_name": 95020,
            "city": "Gilroy",
            "state": "CA",
            "metro": "San Jose-Sunnyvale-Santa Clara, CA",
            "county_name": "Santa Clara County",
            "price": 1072169.7992031118,
            "latitude": 37.0883,
            "longitude": -119.1079
        },
        {
            "region_id": 96865,
            "region_name": 92404,
            "city": "San Bernardino",
            "state": "CA",
            "metro": "Riverside-San Bernardino-Ontario, CA",
            "county_name": "San Bernardino County",
            "price": 472748.2265169635,
            "latitude": 37.4283,
            "longitude": -118.7679
        },
        {
            "region_id": 96003,
            "region_name": 90022,
            "city": "East Los Angeles",
            "state": "CA",
            "metro": "Los Angeles-Long Beach-Anaheim, CA",
            "county_name": "Los Angeles County",
            "price": 663673.2887586872,
            "latitude": 36.8083,
            "longitude": -119.3879
        },
        {
            "region_id": 96501,
            "region_name": 91761,
            "city": "Ontario",
            "state": "CA",
            "metro": "Riverside-San Bernardino-Ontario, CA",
            "county_name": "San Bernardino County",
            "price": 699696.5978590982,
            "latitude": 36.7883,
            "longitude": -119.4079
        },
        {
            "region_id": 96572,
            "region_name": 91977,
            "city": "Spring Valley",
            "state": "CA",
            "metro": "San Diego-Chula Vista-Carlsbad, CA",
            "county_name": "San Diego County",
            "price": 760445.8281774628,
            "latitude": 37.4983,
            "longitude": -118.6979
        },
        {
            "region_id": 96987,
            "region_name": 92677,
            "city": "Laguna Niguel",
            "state": "CA",
            "metro": "Los Angeles-Long Beach-Anaheim, CA",
            "county_name": "Orange County",
            "price": 1415610.5468140887,
            "latitude": 37.6483,
            "longitude": -118.5479
        },
        {
            "region_id": 96962,
            "region_name": 92630,
            "city": "Lake Forest",
            "state": "CA",
            "metro": "Los Angeles-Long Beach-Anaheim, CA",
            "county_name": "Orange County",
            "price": 1183132.9308294922,
            "latitude": 37.3983,
            "longitude": -118.7979
        },
        {
            "region_id": 98413,
            "region_name": 95758,
            "city": "Elk Grove",
            "state": "CA",
            "metro": "Sacramento-Roseville-Folsom, CA",
            "county_name": "Sacramento County",
            "price": 587173.4043379682,
            "latitude": 36.9083,
            "longitude": -119.2879
        },
        {
            "region_id": 96826,
            "region_name": 92346,
            "city": "Highland",
            "state": "CA",
            "metro": "Riverside-San Bernardino-Ontario, CA",
            "county_name": "San Bernardino County",
            "price": 553108.6204820832,
            "latitude": 37.0383,
            "longitude": -119.1579
        },
        {
            "region_id": 96221,
            "region_name": 90731,
            "city": "Los Angeles",
            "state": "CA",
            "metro": "Los Angeles-Long Beach-Anaheim, CA",
            "county_name": "Los Angeles County",
            "price": 813839.3474470678,
            "latitude": 34.0732,
            "longitude": -118.2227
        },
        {
            "region_id": 98040,
            "region_name": 95206,
            "city": "Stockton",
            "state": "CA",
            "metro": "Stockton, CA",
            "county_name": "San Joaquin County",
            "price": 431291.7906730228,
            "latitude": 37.1783,
            "longitude": -119.0179
        },
        {
            "region_id": 98304,
            "region_name": 95608,
            "city": "Carmichael",
            "state": "CA",
            "metro": "Sacramento-Roseville-Folsom, CA",
            "county_name": "Sacramento County",
            "price": 567064.2221926732,
            "latitude": 36.8183,
            "longitude": -119.3779
        },
        {
            "region_id": 96369,
            "region_name": 91343,
            "city": "Los Angeles",
            "state": "CA",
            "metro": "Los Angeles-Long Beach-Anaheim, CA",
            "county_name": "Los Angeles County",
            "price": 876448.6146041659,
            "latitude": 34.1212,
            "longitude": -118.1747
        },
        {
            "region_id": 96728,
            "region_name": 92201,
            "city": "Indio",
            "state": "CA",
            "metro": "Riverside-San Bernardino-Ontario, CA",
            "county_name": "Riverside County",
            "price": 472526.8818643172,
            "latitude": 37.0583,
            "longitude": -119.1379
        },
        {
            "region_id": 96917,
            "region_name": 92562,
            "city": "Murrieta",
            "state": "CA",
            "metro": "Riverside-San Bernardino-Ontario, CA",
            "county_name": "Riverside County",
            "price": 684279.8339813859,
            "latitude": 36.9483,
            "longitude": -119.2479
        },
        {
            "region_id": 97852,
            "region_name": 94806,
            "city": "Richmond",
            "state": "CA",
            "metro": "San Francisco-Oakland-Berkeley, CA",
            "county_name": "Contra Costa County",
            "price": 595858.446363619,
            "latitude": 37.298300000000005,
            "longitude": -118.8979
        },
        {
            "region_id": 96855,
            "region_name": 92392,
            "city": "Victorville",
            "state": "CA",
            "metro": "Riverside-San Bernardino-Ontario, CA",
            "county_name": "San Bernardino County",
            "price": 447267.81095625873,
            "latitude": 37.3283,
            "longitude": -118.8679
        }
    ]
}